{
	"type" : "FeatureCollection",
	"features" : [{
			"geometry" : {
				"type" : "Point",
				"coordinates" : [
					11.5460864,
					48.1602944
				]
			},
			"type" : "Feature",
			"properties" : {
				"link" : "<a href='http://wp.me/p4w7zh-3CF' target='_blank'>Visit blog</a>",
				"name" : " Abyssinia Restaurant Teff"
			}
		}, {
			"geometry" : {
				"type" : "Point",
				"coordinates" : [
					11.6140458,
					48.1421796
				]
			},
			"type" : "Feature",
			"properties" : {
				"link" : "<a href='http://essengehenistaucheinhobby.de/2013/11/23/acquarello-bogenhausen/' target='_blank' target='_blank'>Visit blog</a>",
				"name" : " Acquarello"
			}
		}, {
			"geometry" : {
				"type" : "Point",
				"coordinates" : [
					11.5819647,
					48.1391684
				]
			},
			"type" : "Feature",
			"properties" : {
				"link" : "<a href='http://wp.me/p4w7zh-4dQ' target='_blank'>Visit blog</a>",
				"name" : " Hotel Vier Jahreszeiten – Adventsbrunch"
			}
		}, {
			"geometry" : {
				"type" : "Point",
				"coordinates" : [
					11.5323335831816,
					48.15334355
				]
			},
			"type" : "Feature",
			"properties" : {
				"link" : "<a href='http://wp.me/p4w7zh-hD' target='_blank'>Visit blog</a>",
				"name" : " Alex"
			}
		}, {
			"geometry" : {
				"type" : "Point",
				"coordinates" : [
					11.6144135,
					48.1148829
				]
			},
			"type" : "Feature",
			"properties" : {
				"link" : "<a href='http://essengehenistaucheinhobby.de/2013/11/19/alter-wirt-bayrische-kuche-ramersdorf/' target='_blank'>Visit blog</a>",
				"name" : " Alter Wirt"
			}
		}, {
			"geometry" : {
				"type" : "Point",
				"coordinates" : [
					11.5498260952404,
					48.0881581
				]
			},
			"type" : "Feature",
			"properties" : {
				"link" : "<a href='http://essengehenistaucheinhobby.de/2014/06/18/antica-trattoria-harlaching-italienisch/' target='_blank'>Visit blog</a>",
				"name" : " Antica Trattoria"
			}
		}, {
			"geometry" : {
				"type" : "Point",
				"coordinates" : [
					11.5728677,
					48.1431687
				]
			},
			"type" : "Feature",
			"properties" : {
				"link" : "<a href='http://wp.me/p4w7zh-3Jl\"' target='_blank'>Visit blog</a>",
				"name" : " Asado Steakhouse"
			}
		}, {
			"geometry" : {
				"type" : "Point",
				"coordinates" : [
					11.5844671,
					48.15805
				]
			},
			"type" : "Feature",
			"properties" : {
				"link" : "<a href='http://wp.me/p4w7zh-49a' target='_blank'>Visit blog</a>",
				"name" : " Asahi Sushi"
			}
		}, {
			"geometry" : {
				"type" : "Point",
				"coordinates" : [
					11.5647489,
					48.1221689
				]
			},
			"type" : "Feature",
			"properties" : {
				"link" : "<a href='http://wp.me/p4w7zh-4eM' target='_blank'>Visit blog</a>",
				"name" : " Auenfischer"
			}
		}, {
			"geometry" : {
				"type" : "Point",
				"coordinates" : [
					11.6013051,
					48.1293429
				]
			},
			"type" : "Feature",
			"properties" : {
				"link" : "<a href='http://essengehenistaucheinhobby.de/2013/10/01/augustiner-haidhausen/' target='_blank'>Visit blog</a>",
				"name" : " Haidhauser Augustiner"
			}
		}, {
			"geometry" : {
				"type" : "Point",
				"coordinates" : [
					11.5722656,
					48.1384542
				]
			},
			"type" : "Feature",
			"properties" : {
				"link" : "<a href='http://essengehenistaucheinhobby.de/2014/03/02/augustiner-klosterwirt-innenstadt/' target='_blank'>Visit blog</a>",
				"name" : " Augustiner Klosterwirt"
			}
		}, {
			"geometry" : {
				"type" : "Point",
				"coordinates" : [
					11.5415746,
					48.1376261
				]
			},
			"type" : "Feature",
			"properties" : {
				"link" : "<a href='http://essengehenistaucheinhobby.de/2013/11/25/augustiner-schwalbe-bayrische-kuche-schwanthalerhohe/' target='_blank'>Visit blog</a>",
				"name" : " Augustiner Schwalbe bzw. jetzt HEIMAT FOOD"
			}
		}, {
			"geometry" : {
				"type" : "Point",
				"coordinates" : [
					11.5700259,
					48.1343356
				]
			},
			"type" : "Feature",
			"properties" : {
				"link" : "<a href='http://essengehenistaucheinhobby.de/2014/02/04/b3-burger-bar-nahe-sendlinger-tor-innenstadt/' target='_blank'>Visit blog</a>",
				"name" : " b3 Burger Bar"
			}
		}, {
			"geometry" : {
				"type" : "Point",
				"coordinates" : [
					11.5852921613205,
					48.15789595
				]
			},
			"type" : "Feature",
			"properties" : {
				"link" : "<a href='http://essengehenistaucheinhobby.de/2013/11/03/bachmaier-leopoldstrase-schwabing/' target='_blank'>Visit blog</a>",
				"name" : " Bachmaier"
			}
		}, {
			"geometry" : {
				"type" : "Point",
				"coordinates" : [
					11.5702935,
					48.1304367
				]
			},
			"type" : "Feature",
			"properties" : {
				"link" : "<a href='http://essengehenistaucheinhobby.de/2014/05/31/bamyan-narges-isarvorstadt-afghanisch/' target='_blank'>Visit blog</a>",
				"name" : " Bamyan Narges"
			}
		}, {
			"geometry" : {
				"type" : "Point",
				"coordinates" : [
					11.5581875,
					48.1318977
				]
			},
			"type" : "Feature",
			"properties" : {
				"link" : "<a href='http://essengehenistaucheinhobby.de/2013/10/12/banyan-vietnamese-ludwigvorstadt/' target='_blank'>Visit blog</a>",
				"name" : " Banyan"
			}
		}, {
			"geometry" : {
				"type" : "Point",
				"coordinates" : [
					11.606526,
					48.1311716
				]
			},
			"type" : "Feature",
			"properties" : {
				"link" : "<a href='http://essengehenistaucheinhobby.de/2014/07/03/bmw-welt-bavarie-brasserie-terassen-opening-olympiapark-international/' target='_blank'>Visit blog</a>",
				"name" : " BMW Welt – Bavarie Brasserie"
			}
		}, {
			"geometry" : {
				"type" : "Point",
				"coordinates" : [
					11.578503,
					48.134888
				]
			},
			"type" : "Feature",
			"properties" : {
				"link" : "<a href='http://essengehenistaucheinhobby.de/2014/02/24/beim-sedlmayr-nahe-viktualienmarkt-innenstadt/' target='_blank'>Visit blog</a>",
				"name" : " Beim Sedlmayr"
			}
		}, {
			"geometry" : {
				"type" : "Point",
				"coordinates" : [
					11.5994991,
					48.1278283
				]
			},
			"type" : "Feature",
			"properties" : {
				"link" : "<a href='http://essengehenistaucheinhobby.de/2014/04/12/belicious-burger-haidhausen-burger/' target='_blank'>Visit blog</a>",
				"name" : " Belicious Burger"
			}
		}, {
			"geometry" : {
				"type" : "Point",
				"coordinates" : [
					11.576015,
					48.1361396
				]
			},
			"type" : "Feature",
			"properties" : {
				"link" : "<a href='http://wp.me/p4w7zh-8x' target='_blank'>Visit blog</a>",
				"name" : " Berni´s Nudelbrett"
			}
		}, {
			"geometry" : {
				"type" : "Point",
				"coordinates" : [
					11.7656445,
					47.6954273
				]
			},
			"type" : "Feature",
			"properties" : {
				"link" : "<a href='http://essengehenistaucheinhobby.de/2013/10/05/bistro-andre-rottach-egern/' target='_blank'>Visit blog</a>",
				"name" : " Bistro Andre"
			}
		}, {
			"geometry" : {
				"type" : "Point",
				"coordinates" : [
					11.5737265,
					48.134761
				]
			},
			"type" : "Feature",
			"properties" : {
				"link" : "<a href='http://essengehenistaucheinhobby.de/2013/11/05/bistro-cameleon-jetzt-limone-franzose-am-sebastiansplatz/' target='_blank'>Visit blog</a>",
				"name" : " Bistro Cameleon"
			}
		}, {
			"geometry" : {
				"type" : "Point",
				"coordinates" : [
					11.5892237,
					48.1431424
				]
			},
			"type" : "Feature",
			"properties" : {
				"link" : "<a href='http://essengehenistaucheinhobby.de/alle/restaurant-bayerisches-nationalmuseum-weinviertel/' target='_blank'>Visit blog</a>",
				"name" : " Restaurant Bayerisches Nationalmuseum – bnm"
			}
		}, {
			"geometry" : {
				"type" : "Point",
				"coordinates" : [
					11.5686496,
					48.1560328
				]
			},
			"type" : "Feature",
			"properties" : {
				"link" : "<a href='http://essengehenistaucheinhobby.de/2014/03/18/bodega-dali-maxvorstadt-spanisch/' target='_blank'>Visit blog</a>",
				"name" : " Bodega Dali"
			}
		}, {
			"geometry" : {
				"type" : "Point",
				"coordinates" : [
					11.56593,
					48.1377635
				]
			},
			"type" : "Feature",
			"properties" : {
				"link" : "<a href='http://essengehenistaucheinhobby.de/2014/01/12/bohne-malz-marienplatz-oder-stachus-innenstadt/' target='_blank'>Visit blog</a>",
				"name" : " Bohne und Malz"
			}
		}, {
			"geometry" : {
				"type" : "Point",
				"coordinates" : [
					11.5345101,
					48.1509575
				]
			},
			"type" : "Feature",
			"properties" : {
				"link" : "<a href='http://wp.me/p4w7zh-5IN' target='_blank'>Visit blog</a>",
				"name" : " Broeding"
			}
		}, {
			"geometry" : {
				"type" : "Point",
				"coordinates" : [
					11.5714016,
					48.1550199
				]
			},
			"type" : "Feature",
			"properties" : {
				"link" : "<a href='http://wp.me/p4w7zh-43X' target='_blank'>Visit blog</a>",
				"name" : " BMB – Bruckmann´s Bar"
			}
		}, {
			"geometry" : {
				"type" : "Point",
				"coordinates" : [
					11.5638254,
					48.1502459
				]
			},
			"type" : "Feature",
			"properties" : {
				"link" : "<a href='http://essengehenistaucheinhobby.de/2013/10/25/burrito-company-augustenstrase-maxvorstadt/' target='_blank'>Visit blog</a>",
				"name" : " Burrito Company"
			}
		}, {
			"geometry" : {
				"type" : "Point",
				"coordinates" : [
					11.5585038,
					48.1471086
				]
			},
			"type" : "Feature",
			"properties" : {
				"link" : "<a href='http://wp.me/p4w7zh-3V9' target='_blank'>Visit blog</a>",
				"name" : " busners"
			}
		}, {
			"geometry" : {
				"type" : "Point",
				"coordinates" : [
					11.5891026,
					48.1395827
				]
			},
			"type" : "Feature",
			"properties" : {
				"link" : "<a href='http://essengehenistaucheinhobby.de/2014/10/30/ca-ba-lu-lehel-burger/' target='_blank'>Visit blog</a>",
				"name" : " Ca Ba Lu"
			}
		}, {
			"geometry" : {
				"type" : "Point",
				"coordinates" : [
					11.5587842,
					48.1332061
				]
			},
			"type" : "Feature",
			"properties" : {
				"link" : "<a href='http://essengehenistaucheinhobby.de/2013/10/02/cafe-am-beethovenplatz-2/' target='_blank'>Visit blog</a>",
				"name" : " Café am Beethovenplatz"
			}
		}, {
			"geometry" : {
				"type" : "Point",
				"coordinates" : [
					11.5748023,
					48.1326857
				]
			},
			"type" : "Feature",
			"properties" : {
				"link" : "<a href='http://essengehenistaucheinhobby.de/2013/12/22/cafe-forum-maxvorstadt/' target='_blank'>Visit blog</a>",
				"name" : " Café Forum"
			}
		}, {
			"geometry" : {
				"type" : "Point",
				"coordinates" : [
					11.5933529,
					48.128001
				]
			},
			"type" : "Feature",
			"properties" : {
				"link" : "<a href='http://essengehenistaucheinhobby.de/2014/01/14/cafe-haidhausen-rosenheimer-platz-haidhausen/' target='_blank'>Visit blog</a>",
				"name" : " Café Haidhausen"
			}
		}, {
			"geometry" : {
				"type" : "Point",
				"coordinates" : [
					11.5984066,
					48.1273956
				]
			},
			"type" : "Feature",
			"properties" : {
				"link" : "<a href='http://essengehenistaucheinhobby.de/2013/11/02/cafe-haidi-haidhausen/' target='_blank'>Visit blog</a>",
				"name" : " Café Haidi"
			}
		}, {
			"geometry" : {
				"type" : "Point",
				"coordinates" : [
					11.5637780221947,
					48.1500325
				]
			},
			"type" : "Feature",
			"properties" : {
				"link" : "<a href='http://essengehenistaucheinhobby.de/2013/12/06/cafe-jasmin-maxvorstadt/' target='_blank'>Visit blog</a>",
				"name" : " Café Jasmin"
			}
		}, {
			"geometry" : {
				"type" : "Point",
				"coordinates" : [
					11.5756626,
					48.1399662
				]
			},
			"type" : "Feature",
			"properties" : {
				"link" : "<a href='http://essengehenistaucheinhobby.de/2013/10/02/cafe-kunsthalle-5-hofe/' target='_blank'>Visit blog</a>",
				"name" : " Café Kunsthalle – 5 Höfe (U-Bahn Odeonsplatz)"
			}
		}, {
			"geometry" : {
				"type" : "Point",
				"coordinates" : [
					11.5670911,
					48.1300937
				]
			},
			"type" : "Feature",
			"properties" : {
				"link" : "<a href='http://essengehenistaucheinhobby.de/2014/06/25/cafe-lamar-isarvorstadt-international/' target='_blank'>Visit blog</a>",
				"name" : " Café L´Amar"
			}
		}, {
			"geometry" : {
				"type" : "Point",
				"coordinates" : [
					11.5594619,
					48.1496384
				]
			},
			"type" : "Feature",
			"properties" : {
				"link" : "<a href='http://essengehenistaucheinhobby.de/2014/01/22/cafe-lotti-maxvorstadt/' target='_blank'>Visit blog</a>",
				"name" : " Café Lotti"
			}
		}, {
			"geometry" : {
				"type" : "Point",
				"coordinates" : [
					11.574757,
					48.1429694
				]
			},
			"type" : "Feature",
			"properties" : {
				"link" : "<a href='http://essengehenistaucheinhobby.de/2014/01/30/cafe-luitpold-briennerstrase-odeonsplatz/' target='_blank'>Visit blog</a>",
				"name" : " Café Luitpold"
			}
		}, {
			"geometry" : {
				"type" : "Point",
				"coordinates" : [
					11.574757,
					48.1429694
				]
			},
			"type" : "Feature",
			"properties" : {
				"link" : "<a href='http://wp.me/p4w7zh-3LX' target='_blank'>Visit blog</a>",
				"name" : " Cafe Luitpold"
			}
		}, {
			"geometry" : {
				"type" : "Point",
				"coordinates" : [
					11.5382849,
					48.1503411
				]
			},
			"type" : "Feature",
			"properties" : {
				"link" : "<a href='http://essengehenistaucheinhobby.de/2014/10/27/cafe-neuhausen-neuhausen-internationalcafe/' target='_blank'>Visit blog</a>",
				"name" : " Café Neuhausen"
			}
		}, {
			"geometry" : {
				"type" : "Point",
				"coordinates" : [
					11.3411807,
					47.9964788
				]
			},
			"type" : "Feature",
			"properties" : {
				"link" : "<a href='http://essengehenistaucheinhobby.de/2014/09/19/cafe-prinzregent-starnberg-cafe' target='_blank'>Visit blog</a>",
				"name" : " Café Prinzregent – Starnberg"
			}
		}, {
			"geometry" : {
				"type" : "Point",
				"coordinates" : [
					11.5985146,
					48.1318434
				]
			},
			"type" : "Feature",
			"properties" : {
				"link" : "<a href='http://essengehenistaucheinhobby.de/2013/09/22/cafe-voila-haidhausen/' target='_blank'>Visit blog</a>",
				"name" : " Café Voilá"
			}
		}, {
			"geometry" : {
				"type" : "Point",
				"coordinates" : [
					11.5699211,
					48.1374163
				]
			},
			"type" : "Feature",
			"properties" : {
				"link" : "<a href='http://essengehenistaucheinhobby.de/2014/09/02/calosta-altstadt-griechisch/' target='_blank'>Visit blog</a>",
				"name" : " Calósta"
			}
		}, {
			"geometry" : {
				"type" : "Point",
				"coordinates" : [
					11.6001164,
					48.149039
				]
			},
			"type" : "Feature",
			"properties" : {
				"link" : "<a href='http://essengehenistaucheinhobby.de/2014/07/31/catwalk-bogenhausen-international/' target='_blank'>Visit blog</a>",
				"name" : " Catwalk"
			}
		}, {
			"geometry" : {
				"type" : "Point",
				"coordinates" : [
					11.5960638,
					48.1346138
				]
			},
			"type" : "Feature",
			"properties" : {
				"link" : "<a href='http://essengehenistaucheinhobby.de/2013/11/18/celebrita-wiener-platz-haidhausen/' target='_blank'>Visit blog</a>",
				"name" : " Celebritá"
			}
		}, {
			"geometry" : {
				"type" : "Point",
				"coordinates" : [
					11.5838326,
					48.132771
				]
			},
			"type" : "Feature",
			"properties" : {
				"link" : "<a href='http://essengehenistaucheinhobby.de/2014/01/18/cocosnuss-vietnamese-innenstadt-2/' target='_blank'>Visit blog</a>",
				"name" : " Cocosnuss"
			}
		}, {
			"geometry" : {
				"type" : "Point",
				"coordinates" : [
					11.5715379,
					48.1359469
				]
			},
			"type" : "Feature",
			"properties" : {
				"link" : "<a href='http://essengehenistaucheinhobby.de/2014/12/22/cole-porter-innenstadt-internationalcafe/' target='_blank'>Visit blog</a>",
				"name" : " Cole & Porter"
			}
		}, {
			"geometry" : {
				"type" : "Point",
				"coordinates" : [
					11.4895597,
					48.1766799
				]
			},
			"type" : "Feature",
			"properties" : {
				"link" : "<a href='http://wp.me/p4w7zh-4gW' target='_blank'>Visit blog</a>",
				"name" : " Corretto"
			}
		}, {
			"geometry" : {
				"type" : "Point",
				"coordinates" : [
					11.5672894,
					48.1319698
				]
			},
			"type" : "Feature",
			"properties" : {
				"link" : "<a href='http://essengehenistaucheinhobby.de/2014/02/21/corso-mullerstrase-maxvorstadt/' target='_blank'>Visit blog</a>",
				"name" : " Corso"
			}
		}, {
			"geometry" : {
				"type" : "Point",
				"coordinates" : [
					11.4366596482241,
					48.26106495
				]
			},
			"type" : "Feature",
			"properties" : {
				"link" : "<a href='http://wp.me/p4w7zh-4Je' target='_blank'>Visit blog</a>",
				"name" : " Corso – Dachau"
			}
		}, {
			"geometry" : {
				"type" : "Point",
				"coordinates" : [
					11.5230812,
					48.0395593
				]
			},
			"type" : "Feature",
			"properties" : {
				"link" : "<a href='http://essengehenistaucheinhobby.de/2014/09/28/costa-smeralda-gruenwald-italienisch/' target='_blank'>Visit blog</a>",
				"name" : " Costa Smeralda"
			}
		}, {
			"geometry" : {
				"type" : "Point",
				"coordinates" : [
					11.5723937,
					48.1489718
				]
			},
			"type" : "Feature",
			"properties" : {
				"link" : "<a href='http://essengehenistaucheinhobby.de/2013/11/09/cyclo-vietnamesische-kuche-maxvorstadt-2/' target='_blank'>Visit blog</a>",
				"name" : " Cyclo"
			}
		}, {
			"geometry" : {
				"type" : "Point",
				"coordinates" : [
					11.5745656,
					48.1552658
				]
			},
			"type" : "Feature",
			"properties" : {
				"link" : "<a href='http://essengehenistaucheinhobby.de/2014/03/23/das-lokal-schwabing-international/' target='_blank'>Visit blog</a>",
				"name" : " Das Lokal"
			}
		}, {
			"geometry" : {
				"type" : "Point",
				"coordinates" : [
					11.5773760,
					48.1497120
				]
			},
			"type" : "Feature",
			"properties" : {
				"link" : "<a href='http://essengehenistaucheinhobby.de/2013/10/05/dean-und-david-munchen/' target='_blank'>Visit blog</a>",
				"name" : " Dean und David"
			}
		}, {
			"geometry" : {
				"type" : "Point",
				"coordinates" : [
					11.5766152,
					48.131918
				]
			},
			"type" : "Feature",
			"properties" : {
				"link" : "<a href='http://essengehenistaucheinhobby.de/2014/06/15/eisdielebistro-del-fiore-isarvorstadt-italienisch/' target='_blank'>Visit blog</a>",
				"name" : " Del Fiore"
			}
		}, {
			"geometry" : {
				"type" : "Point",
				"coordinates" : [
					11.52430325,
					47.9675257
				]
			},
			"type" : "Feature",
			"properties" : {
				"link" : "<a href='http://essengehenistaucheinhobby.de/2013/11/13/deininger-weiher-straslach-dingharting/' target='_blank'>Visit blog</a>",
				"name" : " Waldhaus Deininger Weiher"
			}
		}, {
			"geometry" : {
				"type" : "Point",
				"coordinates" : [
					11.5728677,
					48.1431687
				]
			},
			"type" : "Feature",
			"properties" : {
				"link" : "<a href='http://essengehenistaucheinhobby.de/2014/03/19/destina-innenstadt-italienisch/' target='_blank'>Visit blog</a>",
				"name" : " Destina"
			}
		}, {
			"geometry" : {
				"type" : "Point",
				"coordinates" : [
					11.5748903,
					48.1626208
				]
			},
			"type" : "Feature",
			"properties" : {
				"link" : "<a href='http://essengehenistaucheinhobby.de/2014/11/15/dhaba/' target='_blank'>Visit blog</a>",
				"name" : " Dhaba"
			}
		}, {
			"geometry" : {
				"type" : "Point",
				"coordinates" : [
					11.9022422,
					47.8284389
				]
			},
			"type" : "Feature",
			"properties" : {
				"link" : "<a href='http://essengehenistaucheinhobby.de/2014/02/17/dinzler-kaffeerosterei-irschenberg/' target='_blank'>Visit blog</a>",
				"name" : " Dinzler Irschenberg"
			}
		}, {
			"geometry" : {
				"type" : "Point",
				"coordinates" : [
					11.5632009,
					48.1525909
				]
			},
			"type" : "Feature",
			"properties" : {
				"link" : "<a href='http://essengehenistaucheinhobby.de/2014/04/30/eclipse-grill-bar-schwabing-israelisch/' target='_blank'>Visit blog</a>",
				"name" : " Eclipse Grill Bar"
			}
		}, {
			"geometry" : {
				"type" : "Point",
				"coordinates" : [
					11.5815325,
					48.1184746
				]
			},
			"type" : "Feature",
			"properties" : {
				"link" : "<a href='http://essengehenistaucheinhobby.de/2015/04/04/das-edelweiss/' target='_blank'>Visit blog</a>",
				"name" : " Das Edelweiß"
			}
		}, {
			"geometry" : {
				"type" : "Point",
				"coordinates" : [
					11.5715823,
					48.1630164
				]
			},
			"type" : "Feature",
			"properties" : {
				"link" : "<a href='http://essengehenistaucheinhobby.de/2014/02/07/elia-herzogstrase-schwabing/' target='_blank'>Visit blog</a>",
				"name" : " Elia"
			}
		}, {
			"geometry" : {
				"type" : "Point",
				"coordinates" : [
					11.5589727,
					48.1635005
				]
			},
			"type" : "Feature",
			"properties" : {
				"link" : "<a href='http://essengehenistaucheinhobby.de/2014/10/13/el-perro-y-el-griego-haidhausen-spanisch/' target='_blank'>Visit blog</a>",
				"name" : " El Perro Y El Griego"
			}
		}, {
			"geometry" : {
				"type" : "Point",
				"coordinates" : [
					11.5768331,
					48.1354708
				]
			},
			"type" : "Feature",
			"properties" : {
				"link" : "<a href='http://essengehenistaucheinhobby.de/2015/03/15/emiko/' target='_blank'>Visit blog</a>",
				"name" : " Emiko"
			}
		}, {
			"geometry" : {
				"type" : "Point",
				"coordinates" : [
					11.5892237,
					48.1431424
				]
			},
			"type" : "Feature",
			"properties" : {
				"link" : "<a href='http://wp.me/p4w7zh-5Lh' target='_blank'>Visit blog</a>",
				"name" : " Restaurant Bayerisches Nationalmuseum – bnm"
			}
		}, {
			"geometry" : {
				"type" : "Point",
				"coordinates" : [
					11.5416801,
					48.1583613
				]
			},
			"type" : "Feature",
			"properties" : {
				"link" : "<a href='http://wp.me/p4w7zh-3Hv' target='_blank'>Visit blog</a>",
				"name" : " Esskapade"
			}
		}, {
			"geometry" : {
				"type" : "Point",
				"coordinates" : [
					11.5665082,
					48.1437356
				]
			},
			"type" : "Feature",
			"properties" : {
				"link" : "<a href='http://essengehenistaucheinhobby.de/2014/08/24/fabricca-altstadt-italienisch/' target='_blank'>Visit blog</a>",
				"name" : " Fabricca"
			}
		}, {
			"geometry" : {
				"type" : "Point",
				"coordinates" : [
					11.5744201,
					48.1164802
				]
			},
			"type" : "Feature",
			"properties" : {
				"link" : "<a href='http://essengehenistaucheinhobby.de/2014/10/23/fuchs-fiedler/' target='_blank'>Visit blog</a>",
				"name" : " Fiedler & Fuchs"
			}
		}, {
			"geometry" : {
				"type" : "Point",
				"coordinates" : [
					11.5487503398619,
					48.0391347
				]
			},
			"type" : "Feature",
			"properties" : {
				"link" : "<a href='http://essengehenistaucheinhobby.de/2014/11/12/forsthaus_woernbrunn/' target='_blank'>Visit blog</a>",
				"name" : " Forsthaus Wörnbrunn"
			}
		}, {
			"geometry" : {
				"type" : "Point",
				"coordinates" : [
					11.623095,
					48.1658477
				]
			},
			"type" : "Feature",
			"properties" : {
				"link" : "<a href='http://essengehenistaucheinhobby.de/alle/freisinger-hof-weinviertel/' target='_blank'>Visit blog</a>",
				"name" : " Freisinger Hof"
			}
		}, {
			"geometry" : {
				"type" : "Point",
				"coordinates" : [
					11.597604,
					48.1265521
				]
			},
			"type" : "Feature",
			"properties" : {
				"link" : "<a href='http://essengehenistaucheinhobby.de/2013/10/24/ganesha-inder-haidhausen/' target='_blank'>Visit blog</a>",
				"name" : " Ganesha"
			}
		}, {
			"geometry" : {
				"type" : "Point",
				"coordinates" : [
					11.3377787720308,
					47.8250895
				]
			},
			"type" : "Feature",
			"properties" : {
				"link" : "<a href='http://wp.me/p4w7zh-4ch' target='_blank'>Visit blog</a>",
				"name" : " Gasthaus Fischerrosl"
			}
		}, {
			"geometry" : {
				"type" : "Point",
				"coordinates" : [
					11.61876,
					48.0586854
				]
			},
			"type" : "Feature",
			"properties" : {
				"link" : "<a href='http://essengehenistaucheinhobby.de/2014/04/14/gasthaus-zur-post-unterhaching-bayerisch/' target='_blank'>Visit blog</a>",
				"name" : " Gasthaus zur Post"
			}
		}, {
			"geometry" : {
				"type" : "Point",
				"coordinates" : [
					11.7280083,
					48.146806
				]
			},
			"type" : "Feature",
			"properties" : {
				"link" : "<a href='http://essengehenistaucheinhobby.de/2014/05/11/gasthof-bauer-feldkirchen-bayerisch/' target='_blank'>Visit blog</a>",
				"name" : " Gasthof Bauer – Feldkirchen"
			}
		}, {
			"geometry" : {
				"type" : "Point",
				"coordinates" : [
					11.5676032,
					48.1316994
				]
			},
			"type" : "Feature",
			"properties" : {
				"link" : "<a href='http://essengehenistaucheinhobby.de/2014/03/11/glockenbach-international-hackenviertel/' target='_blank'>Visit blog</a>",
				"name" : " Glockenbach"
			}
		}, {
			"geometry" : {
				"type" : "Point",
				"coordinates" : [
					11.58411,
					48.1340742
				]
			},
			"type" : "Feature",
			"properties" : {
				"link" : "<a href='http://essengehenistaucheinhobby.de/2015/04/11/goa/' target='_blank'>Visit blog</a>",
				"name" : " Goa"
			}
		}, {
			"geometry" : {
				"type" : "Point",
				"coordinates" : [
					11.573556,
					48.1562604
				]
			},
			"type" : "Feature",
			"properties" : {
				"link" : "<a href='http://essengehenistaucheinhobby.de/2014/03/31/golden-twenties-schwabing-italienisch/' target='_blank'>Visit blog</a>",
				"name" : " Golden Twenties"
			}
		}, {
			"geometry" : {
				"type" : "Point",
				"coordinates" : [
					11.5843425,
					48.1382826
				]
			},
			"type" : "Feature",
			"properties" : {
				"link" : "<a href='http://wp.me/p4w7zh-4AV' target='_blank'>Visit blog</a>",
				"name" : " GOP Varieté München"
			}
		}, {
			"geometry" : {
				"type" : "Point",
				"coordinates" : [
					11.5737265,
					48.134761
				]
			},
			"type" : "Feature",
			"properties" : {
				"link" : "<a href='http://essengehenistaucheinhobby.de/2013/12/13/grano-sebastiansplatz/' target='_blank'>Visit blog</a>",
				"name" : " Grano"
			}
		}, {
			"geometry" : {
				"type" : "Point",
				"coordinates" : [
					11.5625182435331,
					48.1428924
				]
			},
			"type" : "Feature",
			"properties" : {
				"link" : "<a href='http://wp.me/p4w7zh-5XE' target='_blank'>Visit blog</a>",
				"name" : " Sophia´s Restaurant & Bar"
			}
		}, {
			"geometry" : {
				"type" : "Point",
				"coordinates" : [
					11.5438944504996,
					48.06503725
				]
			},
			"type" : "Feature",
			"properties" : {
				"link" : "<a href='http://essengehenistaucheinhobby.de/2014/07/22/gruenwalder-einkehr-gruenwald-bayerisch/' target='_blank'>Visit blog</a>",
				"name" : " Grünwalder Einkehr"
			}
		}, {
			"geometry" : {
				"type" : "Point",
				"coordinates" : [
					11.5818112,
					48.1456151
				]
			},
			"type" : "Feature",
			"properties" : {
				"link" : "<a href='http://wp.me/p4w7zh-5Lf' target='_blank'>Visit blog</a>",
				"name" : " Halali"
			}
		}, {
			"geometry" : {
				"type" : "Point",
				"coordinates" : [
					11.6627438,
					48.0638939
				]
			},
			"type" : "Feature",
			"properties" : {
				"link" : "<a href='http://essengehenistaucheinhobby.de/2014/02/09/happy-quynh-vietnamese-ottobrunn/' target='_blank'>Visit blog</a>",
				"name" : " Happy Quynh"
			}
		}, {
			"geometry" : {
				"type" : "Point",
				"coordinates" : [
					11.5553839189208,
					48.0870265
				]
			},
			"type" : "Feature",
			"properties" : {
				"link" : "<a href='http://essengehenistaucheinhobby.de/2015/06/22/harlachinger-jagdschloessl/' target='_blank'>Visit blog</a>",
				"name" : " Harlachinger Jagdschlössl"
			}
		}, {
			"geometry" : {
				"type" : "Point",
				"coordinates" : [
					11.5553839189208,
					48.0870265
				]
			},
			"type" : "Feature",
			"properties" : {
				"link" : "<a href='http://wp.me/p4w7zh-5hB' target='_blank'>Visit blog</a>",
				"name" : " Harlachinger Jagdschlössl"
			}
		}, {
			"geometry" : {
				"type" : "Point",
				"coordinates" : [
					11.4144926455015,
					48.1045606
				]
			},
			"type" : "Feature",
			"properties" : {
				"link" : "<a href='http://essengehenistaucheinhobby.de/2015/05/09/heide-volm-planegg' target='_blank'>Visit blog</a>",
				"name" : " Heide Volm"
			}
		}, {
			"geometry" : {
				"type" : "Point",
				"coordinates" : [
					11.5621436,
					48.1409515
				]
			},
			"type" : "Feature",
			"properties" : {
				"link" : "<a href='http://essengehenistaucheinhobby.de/2014/07/26/henrys-deli-elisenhofmaxvorstadt-international/' target='_blank'>Visit blog</a>",
				"name" : " Henrys Deli"
			}
		}, {
			"geometry" : {
				"type" : "Point",
				"coordinates" : [
					11.5683981,
					48.1288463
				]
			},
			"type" : "Feature",
			"properties" : {
				"link" : "<a href='http://essengehenistaucheinhobby.de/2014/04/21/hey-luigi-isarvorstadt-italienisch/' target='_blank'>Visit blog</a>",
				"name" : " Hey Luigi"
			}
		}, {
			"geometry" : {
				"type" : "Point",
				"coordinates" : [
					11.9119024,
					48.165886
				]
			},
			"type" : "Feature",
			"properties" : {
				"link" : "<a href='http://essengehenistaucheinhobby.de/2013/10/18/hofkucherl-bayrische-kuche-forstinning/' target='_blank'>Visit blog</a>",
				"name" : " Hofkücherl – Forstinning"
			}
		}, {
			"geometry" : {
				"type" : "Point",
				"coordinates" : [
					11.5986567,
					48.1317485
				]
			},
			"type" : "Feature",
			"properties" : {
				"link" : "<a href='http://essengehenistaucheinhobby.de/2014/01/31/holy-burger-grill-haidhausen/' target='_blank'>Visit blog</a>",
				"name" : " Holy Burger Grill"
			}
		}, {
			"geometry" : {
				"type" : "Point",
				"coordinates" : [
					11.5772115,
					48.1611429
				]
			},
			"type" : "Feature",
			"properties" : {
				"link" : "<a href='http://essengehenistaucheinhobby.de/2013/12/18/hostaria-ro-e-buni/' target='_blank'>Visit blog</a>",
				"name" : " Hostaria Rò e Bunì"
			}
		}, {
			"geometry" : {
				"type" : "Point",
				"coordinates" : [
					11.6287923,
					48.1013875
				]
			},
			"type" : "Feature",
			"properties" : {
				"link" : "<a href='http://essengehenistaucheinhobby.de/2013/10/26/hufnagel-pfanzeltplatz-altperlach/' target='_blank'>Visit blog</a>",
				"name" : " Hufnagel"
			}
		}, {
			"geometry" : {
				"type" : "Point",
				"coordinates" : [
					11.5844671,
					48.15805
				]
			},
			"type" : "Feature",
			"properties" : {
				"link" : "<a href='http://wp.me/p4w7zh-49a' target='_blank'>Visit blog</a>",
				"name" : " Asahi Sushi"
			}
		}, {
			"geometry" : {
				"type" : "Point",
				"coordinates" : [
					11.5755666,
					48.1281758
				]
			},
			"type" : "Feature",
			"properties" : {
				"link" : "<a href='http://essengehenistaucheinhobby.de/2013/10/14/hungriges-herz-isarvorstadt/' target='_blank'>Visit blog</a>",
				"name" : " Hungriges Herz"
			}
		}, {
			"geometry" : {
				"type" : "Point",
				"coordinates" : [
					11.6019943,
					48.1297814
				]
			},
			"type" : "Feature",
			"properties" : {
				"link" : "<a href='http://essengehenistaucheinhobby.de/2013/09/28/il-cigno-ristorante-haidhausen/' target='_blank'>Visit blog</a>",
				"name" : " Il Cigno Ristorante und Pizzeria"
			}
		}, {
			"geometry" : {
				"type" : "Point",
				"coordinates" : [
					11.5677157,
					48.1541714
				]
			},
			"type" : "Feature",
			"properties" : {
				"link" : "<a href='http://wp.me/p4w7zh-48z' target='_blank'>Visit blog</a>",
				"name" : " Il Mulino"
			}
		}, {
			"geometry" : {
				"type" : "Point",
				"coordinates" : [
					11.630594,
					48.0996301
				]
			},
			"type" : "Feature",
			"properties" : {
				"link" : "<a href='http://essengehenistaucheinhobby.de/2014/01/09/il-ruscello-pfanzeltplatz-altperlach/' target='_blank'>Visit blog</a>",
				"name" : " Il Ruscello"
			}
		}, {
			"geometry" : {
				"type" : "Point",
				"coordinates" : [
					11.5311599,
					48.070982
				]
			},
			"type" : "Feature",
			"properties" : {
				"link" : "<a href='http://wp.me/p4w7zh-50s' target='_blank'>Visit blog</a>",
				"name" : " Isartaler Brauhaus"
			}
		}, {
			"geometry" : {
				"type" : "Point",
				"coordinates" : [
					11.6308068,
					48.117751
				]
			},
			"type" : "Feature",
			"properties" : {
				"link" : "<a href='http://essengehenistaucheinhobby.de/2013/11/01/jade-chinese-berg-am-laim/' target='_blank'>Visit blog</a>",
				"name" : " Jade – Chinese"
			}
		}, {
			"geometry" : {
				"type" : "Point",
				"coordinates" : [
					11.5176132,
					48.0769286
				]
			},
			"type" : "Feature",
			"properties" : {
				"link" : "<a href='http://wp.me/s4w7zh-jaipur' target='_blank'>Visit blog</a>",
				"name" : " Jaipur"
			}
		}, {
			"geometry" : {
				"type" : "Point",
				"coordinates" : [
					11.5842768,
					48.1358165
				]
			},
			"type" : "Feature",
			"properties" : {
				"link" : "<a href='http://essengehenistaucheinhobby.de/2015/04/20/jin/' target='_blank'>Visit blog</a>",
				"name" : " Jin"
			}
		}, {
			"geometry" : {
				"type" : "Point",
				"coordinates" : [
					11.579081,
					48.1322541
				]
			},
			"type" : "Feature",
			"properties" : {
				"link" : "<a href='http://essengehenistaucheinhobby.de/2014/11/06/joe-penas-innenstadt-mexikanisch/' target='_blank'>Visit blog</a>",
				"name" : " Joe Pena´s"
			}
		}, {
			"geometry" : {
				"type" : "Point",
				"coordinates" : [
					11.6194943,
					48.1515838
				]
			},
			"type" : "Feature",
			"properties" : {
				"link" : "<a href='http://essengehenistaucheinhobby.de/2015/01/03/kim-sang/' target='_blank'>Visit blog</a>",
				"name" : " Kim Sang"
			}
		}, {
			"geometry" : {
				"type" : "Point",
				"coordinates" : [
					11.5779397,
					48.1388382
				]
			},
			"type" : "Feature",
			"properties" : {
				"link" : "<a href='http://essengehenistaucheinhobby.de/2014/03/09/kleines-kameel-barcafe-altstadt/' target='_blank'>Visit blog</a>",
				"name" : " Kleines Kameel"
			}
		}, {
			"geometry" : {
				"type" : "Point",
				"coordinates" : [
					11.4540729,
					48.5009
				]
			},
			"type" : "Feature",
			"properties" : {
				"link" : "<a href='http://wp.me/p4w7zh-5Aw' target='_blank'>Visit blog</a>",
				"name" : " Klosterschenke Scheyern"
			}
		}, {
			"geometry" : {
				"type" : "Point",
				"coordinates" : [
					11.5755376,
					48.1432179
				]
			},
			"type" : "Feature",
			"properties" : {
				"link" : "<a href='http://essengehenistaucheinhobby.de/2014/08/16/koi-altstadt-japanisch/' target='_blank'>Visit blog</a>",
				"name" : " Koi"
			}
		}, {
			"geometry" : {
				"type" : "Point",
				"coordinates" : [
					11.5569233,
					48.1253676
				]
			},
			"type" : "Feature",
			"properties" : {
				"link" : "<a href='http://essengehenistaucheinhobby.de/2014/07/20/konstantin-friends-isarvorstadt-griechisch/' target='_blank'>Visit blog</a>",
				"name" : " Konstantin & friends"
			}
		}, {
			"geometry" : {
				"type" : "Point",
				"coordinates" : [
					11.5699583,
					48.1311054
				]
			},
			"type" : "Feature",
			"properties" : {
				"link" : "<a href='http://essengehenistaucheinhobby.de/alle/kork-weinbar-weinviertel/' target='_blank'>Visit blog</a>",
				"name" : " Kork Weinbar"
			}
		}, {
			"geometry" : {
				"type" : "Point",
				"coordinates" : [
					11.6341012,
					48.1276918
				]
			},
			"type" : "Feature",
			"properties" : {
				"link" : "<a href='http://essengehenistaucheinhobby.de/2013/09/28/kreillers-berg-am-laim/' target='_blank'>Visit blog</a>",
				"name" : " Kreillers"
			}
		}, {
			"geometry" : {
				"type" : "Point",
				"coordinates" : [
					11.5807013,
					48.1364978
				]
			},
			"type" : "Feature",
			"properties" : {
				"link" : "<a href='http://essengehenistaucheinhobby.de/2015/01/31/buffet-kull-bar/' target='_blank'>Visit blog</a>",
				"name" : " Buffet Kull Bar"
			}
		}, {
			"geometry" : {
				"type" : "Point",
				"coordinates" : [
					11.5728677,
					48.1431687
				]
			},
			"type" : "Feature",
			"properties" : {
				"link" : "<a href='http://essengehenistaucheinhobby.de/2013/10/03/la-baracca-altstadt/' target='_blank'>Visit blog</a>",
				"name" : " La Baracca"
			}
		}, {
			"geometry" : {
				"type" : "Point",
				"coordinates" : [
					11.5953364,
					48.1338676
				]
			},
			"type" : "Feature",
			"properties" : {
				"link" : "<a href='http://essengehenistaucheinhobby.de/2013/10/13/la-cicchetteria-italienische-bar-haidhausen/' target='_blank'>Visit blog</a>",
				"name" : " La Cicchetteria – italienische Bar"
			}
		}, {
			"geometry" : {
				"type" : "Point",
				"coordinates" : [
					11.5754223,
					48.1496414
				]
			},
			"type" : "Feature",
			"properties" : {
				"link" : "<a href='http://essengehenistaucheinhobby.de/2013/11/05/laden-turkenstrase-schwabing/' target='_blank'>Visit blog</a>",
				"name" : " Laden"
			}
		}, {
			"geometry" : {
				"type" : "Point",
				"coordinates" : [
					11.5812578,
					48.1334536
				]
			},
			"type" : "Feature",
			"properties" : {
				"link" : "<a href='http://essengehenistaucheinhobby.de/2014/11/03/lago-di-garda-isarvorstadt-italienisch/' target='_blank'>Visit blog</a>",
				"name" : " Lago di Garda"
			}
		}, {
			"geometry" : {
				"type" : "Point",
				"coordinates" : [
					11.5700608,
					48.1361256
				]
			},
			"type" : "Feature",
			"properties" : {
				"link" : "<a href='http://wp.me/p4w7zh-5Pn' target='_blank'>Visit blog</a>",
				"name" : " Landersdorfer und Innerhofer"
			}
		}, {
			"geometry" : {
				"type" : "Point",
				"coordinates" : [
					11.606526,
					48.1311716
				]
			},
			"type" : "Feature",
			"properties" : {
				"link" : "<a href='http://essengehenistaucheinhobby.de/2014/07/28/langelo-haidhausen-italienisch/' target='_blank'>Visit blog</a>",
				"name" : " L´Angolo"
			}
		}, {
			"geometry" : {
				"type" : "Point",
				"coordinates" : [
					11.5787798,
					48.1698215
				]
			},
			"type" : "Feature",
			"properties" : {
				"link" : "<a href='http://wp.me/p4w7zh-3Tm' target='_blank'>Visit blog</a>",
				"name" : " La Piazza"
			}
		}, {
			"geometry" : {
				"type" : "Point",
				"coordinates" : [
					11.5760214,
					48.1551654
				]
			},
			"type" : "Feature",
			"properties" : {
				"link" : "<a href='http://essengehenistaucheinhobby.de/2014/10/08/le-florida-schwabing-international/' target='_blank'>Visit blog</a>",
				"name" : " Le Florida"
			}
		}, {
			"geometry" : {
				"type" : "Point",
				"coordinates" : [
					11.542253,
					48.1347281
				]
			},
			"type" : "Feature",
			"properties" : {
				"link" : "<a href='http://essengehenistaucheinhobby.de/2014/12/15/la-kaz-schwanthalerhoehe-international/' target='_blank'>Visit blog</a>",
				"name" : " La Kaz"
			}
		}, {
			"geometry" : {
				"type" : "Point",
				"coordinates" : [
					11.4209256,
					48.1208571
				]
			},
			"type" : "Feature",
			"properties" : {
				"link" : "<a href='http://wp.me/p4w7zh-4Vc' target='_blank'>Visit blog</a>",
				"name" : " Laurus – Gräfelfing"
			}
		}, {
			"geometry" : {
				"type" : "Point",
				"coordinates" : [
					11.5499433,
					48.1132383
				]
			},
			"type" : "Feature",
			"properties" : {
				"link" : "<a href='http://essengehenistaucheinhobby.de/2014/08/06/lezizel-manti-sendling-tuerkisch/' target='_blank'>Visit blog</a>",
				"name" : " Lezizel Manti – Türkische Teigtaschen"
			}
		}, {
			"geometry" : {
				"type" : "Point",
				"coordinates" : [
					11.5674644,
					48.131129
				]
			},
			"type" : "Feature",
			"properties" : {
				"link" : "<a href='http://essengehenistaucheinhobby.de/alle/little-wolf-weinviertel-oesterreich/' target='_blank'>Visit blog</a>",
				"name" : " Little Wolf"
			}
		}, {
			"geometry" : {
				"type" : "Point",
				"coordinates" : [
					11.5819647,
					48.1391684
				]
			},
			"type" : "Feature",
			"properties" : {
				"link" : "<a href='http://wp.me/p4w7zh-4dR' target='_blank'>Visit blog</a>",
				"name" : " Hotel Vier Jahreszeiten Kempinski – Silvester Lobbyparty"
			}
		}, {
			"geometry" : {
				"type" : "Point",
				"coordinates" : [
					11.5662104079357,
					48.15694245
				]
			},
			"type" : "Feature",
			"properties" : {
				"link" : "<a href='http://essengehenistaucheinhobby.de/2014/01/10/la-sputino-italiener-schwabing-west/' target='_blank'>Visit blog</a>",
				"name" : " Lo Spuntino"
			}
		}, {
			"geometry" : {
				"type" : "Point",
				"coordinates" : [
					11.5771091,
					48.135453
				]
			},
			"type" : "Feature",
			"properties" : {
				"link" : "<a href='http://essengehenistaucheinhobby.de/2013/11/08/laurin-restaurant-cafe-innenstadt/' target='_blank'>Visit blog</a>",
				"name" : " Café / Restaurant Laurin"
			}
		}, {
			"geometry" : {
				"type" : "Point",
				"coordinates" : [
					11.5635332,
					48.134872
				]
			},
			"type" : "Feature",
			"properties" : {
				"link" : "<a href='http://essengehenistaucheinhobby.de/2013/10/29/la-vecchia-masseria-italiener-innenstadt/' target='_blank'>Visit blog</a>",
				"name" : " La Vecchia Masseria"
			}
		}, {
			"geometry" : {
				"type" : "Point",
				"coordinates" : [
					11.5775267,
					48.1474671
				]
			},
			"type" : "Feature",
			"properties" : {
				"link" : "<a href='http://essengehenistaucheinhobby.de/2014/08/26/le-du-schwabing-asiatisch/' target='_blank'>Visit blog</a>",
				"name" : " LeDu"
			}
		}, {
			"geometry" : {
				"type" : "Point",
				"coordinates" : [
					11.5935393,
					48.1456016
				]
			},
			"type" : "Feature",
			"properties" : {
				"link" : "<a href='http://essengehenistaucheinhobby.de/2014/06/14/leib-und-seele-lehel-bayerisch/' target='_blank'>Visit blog</a>",
				"name" : " Leib und Seele"
			}
		}, {
			"geometry" : {
				"type" : "Point",
				"coordinates" : [
					11.5580028,
					48.1390138
				]
			},
			"type" : "Feature",
			"properties" : {
				"link" : "<a href='http://essengehenistaucheinhobby.de/2014/07/15/le-meridien-innenstadt-international/' target='_blank'>Visit blog</a>",
				"name" : " Le Méridien"
			}
		}, {
			"geometry" : {
				"type" : "Point",
				"coordinates" : [
					11.5742797,
					48.1437988
				]
			},
			"type" : "Feature",
			"properties" : {
				"link" : "<a href='http://essengehenistaucheinhobby.de/2014/02/06/lucky-who-brienner-strase-altstadt/' target='_blank'>Visit blog</a>",
				"name" : " Lucky Who"
			}
		}, {
			"geometry" : {
				"type" : "Point",
				"coordinates" : [
					11.5834798,
					48.1344894
				]
			},
			"type" : "Feature",
			"properties" : {
				"link" : "<a href='http://essengehenistaucheinhobby.de/2014/03/12/mamasita-mexikanisch-innenstadt/' target='_blank'>Visit blog</a>",
				"name" : " Mamasita"
			}
		}, {
			"geometry" : {
				"type" : "Point",
				"coordinates" : [
					11.5460914,
					48.1000812
				]
			},
			"type" : "Feature",
			"properties" : {
				"link" : "<a href='http://essengehenistaucheinhobby.de/2013/11/17/mangostin-asiate-thalkirchen/' target='_blank'>Visit blog</a>",
				"name" : " Mangostin"
			}
		}, {
			"geometry" : {
				"type" : "Point",
				"coordinates" : [
					11.5780921,
					48.1345256
				]
			},
			"type" : "Feature",
			"properties" : {
				"link" : "<a href='http://essengehenistaucheinhobby.de/2014/03/05/masters-home-italienisches-8-gange-menu-viktualienmarkt/' target='_blank'>Visit blog</a>",
				"name" : " Master´s Home"
			}
		}, {
			"geometry" : {
				"type" : "Point",
				"coordinates" : [
					11.5807704,
					48.1371623
				]
			},
			"type" : "Feature",
			"properties" : {
				"link" : "<a href='http://wp.me/p4w7zh-464' target='_blank'>Visit blog</a>",
				"name" : " Matsuhisa Munich und Bar31 (Mandarin Oriental, Munich)"
			}
		}, {
			"geometry" : {
				"type" : "Point",
				"coordinates" : [
					11.5611269,
					48.1254734
				]
			},
			"type" : "Feature",
			"properties" : {
				"link" : "<a href='http://wp.me/p4w7zh-4cN' target='_blank'>Visit blog</a>",
				"name" : " meat in bun"
			}
		}, {
			"geometry" : {
				"type" : "Point",
				"coordinates" : [
					11.5482291,
					48.1497998
				]
			},
			"type" : "Feature",
			"properties" : {
				"link" : "<a href='http://essengehenistaucheinhobby.de/2014/07/09/medici-neuhausen-italienisch/' target='_blank'>Visit blog</a>",
				"name" : " Medici"
			}
		}, {
			"geometry" : {
				"type" : "Point",
				"coordinates" : [
					11.4906339,
					48.1194264
				]
			},
			"type" : "Feature",
			"properties" : {
				"link" : "<a href='http://wp.me/p4w7zh-47Q' target='_blank'>Visit blog</a>",
				"name" : " Mehlfeld´s"
			}
		}, {
			"geometry" : {
				"type" : "Point",
				"coordinates" : [
					11.5451926,
					48.0817888
				]
			},
			"type" : "Feature",
			"properties" : {
				"link" : "<a href='http://essengehenistaucheinhobby.de/2014/10/04/menterschwaige-harlaching-bayerischbiergarten/' target='_blank'>Visit blog</a>",
				"name" : " Menterschwaige"
			}
		}, {
			"geometry" : {
				"type" : "Point",
				"coordinates" : [
					11.6209378,
					48.1501652
				]
			},
			"type" : "Feature",
			"properties" : {
				"link" : "<a href='http://essengehenistaucheinhobby.de/2014/06/28/meissners-bogenhausen-international' target='_blank'>Visit blog</a>",
				"name" : " Meissners"
			}
		}, {
			"geometry" : {
				"type" : "Point",
				"coordinates" : [
					11.4805084,
					48.1713409
				]
			},
			"type" : "Feature",
			"properties" : {
				"link" : "<a href='http://wp.me/p4w7zh-44C' target='_blank'>Visit blog</a>",
				"name" : " Menzingers"
			}
		}, {
			"geometry" : {
				"type" : "Point",
				"coordinates" : [
					11.6382606104888,
					48.11541115
				]
			},
			"type" : "Feature",
			"properties" : {
				"link" : "<a href='http://essengehenistaucheinhobby.de/2014/05/22/michaeligarten-perlach-bayerisch/' target='_blank'>Visit blog</a>",
				"name" : " Michaeligarten – Restaurant & Biergarten"
			}
		}, {
			"geometry" : {
				"type" : "Point",
				"coordinates" : [
					11.5740892,
					48.120287
				]
			},
			"type" : "Feature",
			"properties" : {
				"link" : "<a href='http://essengehenistaucheinhobby.de/2014/09/16/miss-lillys-au-cafe-international/' target='_blank'>Visit blog</a>",
				"name" : " Miss Lilly´s"
			}
		}, {
			"geometry" : {
				"type" : "Point",
				"coordinates" : [
					11.547834,
					47.8221242
				]
			},
			"type" : "Feature",
			"properties" : {
				"link" : "<a href='http://essengehenistaucheinhobby.de/2014/01/20/moarwirt-bayerische-kuche-bei-bad-tolz/' target='_blank'>Visit blog</a>",
				"name" : " Moarwirt"
			}
		}, {
			"geometry" : {
				"type" : "Point",
				"coordinates" : [
					11.5455176,
					48.1488791
				]
			},
			"type" : "Feature",
			"properties" : {
				"link" : "<a href='http://essengehenistaucheinhobby.de/2014/08/13/mugolone-neuhausen-italienisch/' target='_blank'>Visit blog</a>",
				"name" : " Mugolone"
			}
		}, {
			"geometry" : {
				"type" : "Point",
				"coordinates" : [
					11.5529868,
					48.1250501
				]
			},
			"type" : "Feature",
			"properties" : {
				"link" : "<a href='http://wp.me/p4w7zh-2tC' target='_blank'>Visit blog</a>",
				"name" : " My Good Greens"
			}
		}, {
			"geometry" : {
				"type" : "Point",
				"coordinates" : [
					11.5484514,
					48.1112534
				]
			},
			"type" : "Feature",
			"properties" : {
				"link" : "<a href='http://essengehenistaucheinhobby.de/2013/10/20/myra-turkisches-restaurant-sendling/' target='_blank'>Visit blog</a>",
				"name" : " Myra"
			}
		}, {
			"geometry" : {
				"type" : "Point",
				"coordinates" : [
					11.6065545,
					48.0718972
				]
			},
			"type" : "Feature",
			"properties" : {
				"link" : "<a href='http://essengehenistaucheinhobby.de/2013/12/22/mythos-mediterrane-kuche-unterhaching/' target='_blank'>Visit blog</a>",
				"name" : " Mythos"
			}
		}, {
			"geometry" : {
				"type" : "Point",
				"coordinates" : [
					11.5764416,
					48.1474025
				]
			},
			"type" : "Feature",
			"properties" : {
				"link" : "<a href='http://essengehenistaucheinhobby.de/2014/02/13/nam-nam-vietnamese-maxvorstadt/' target='_blank'>Visit blog</a>",
				"name" : " Nam Nam"
			}
		}, {
			"geometry" : {
				"type" : "Point",
				"coordinates" : [
					11.6253482,
					48.1151768
				]
			},
			"type" : "Feature",
			"properties" : {
				"link" : "<a href='http://essengehenistaucheinhobby.de/2014/04/23/nefeli-ramersdorf-griechisch/' target='_blank'>Visit blog</a>",
				"name" : " Nefeli"
			}
		}, {
			"geometry" : {
				"type" : "Point",
				"coordinates" : [
					11.5802878,
					48.1337834
				]
			},
			"type" : "Feature",
			"properties" : {
				"link" : "<a href='http://essengehenistaucheinhobby.de/2015/03/19/nero-pizza-grill/' target='_blank'>Visit blog</a>",
				"name" : " nero pizza & grill"
			}
		}, {
			"geometry" : {
				"type" : "Point",
				"coordinates" : [
					11.5986567,
					48.1317485
				]
			},
			"type" : "Feature",
			"properties" : {
				"link" : "<a href='http://essengehenistaucheinhobby.de/2013/10/07/nomiya-bayrischer-japaner-haidhausen/' target='_blank'>Visit blog</a>",
				"name" : " Nomiya"
			}
		}, {
			"geometry" : {
				"type" : "Point",
				"coordinates" : [
					11.6044396,
					48.1421625
				]
			},
			"type" : "Feature",
			"properties" : {
				"link" : "<a href='http://essengehenistaucheinhobby.de/2014/01/17/nuovo-casale-italiener-bogenhausen/' target='_blank'>Visit blog</a>",
				"name" : " Nuovo Casale"
			}
		}, {
			"geometry" : {
				"type" : "Point",
				"coordinates" : [
					11.7010006,
					47.8772295
				]
			},
			"type" : "Feature",
			"properties" : {
				"link" : "<a href='http://essengehenistaucheinhobby.de/2014/04/10/gasthof-oberbraeu-holzkirchen-bayerisch/' target='_blank'>Visit blog</a>",
				"name" : " Gasthof Oberbräu"
			}
		}, {
			"geometry" : {
				"type" : "Point",
				"coordinates" : [
					11.5895486,
					48.1612022
				]
			},
			"type" : "Feature",
			"properties" : {
				"link" : "<a href='http://essengehenistaucheinhobby.de/2014/03/22/occam-deli-schwabing-international/' target='_blank'>Visit blog</a>",
				"name" : " Occam Deli"
			}
		}, {
			"geometry" : {
				"type" : "Point",
				"coordinates" : [
					11.5713783,
					48.1363515
				]
			},
			"type" : "Feature",
			"properties" : {
				"link" : "<a href='http://essengehenistaucheinhobby.de/2014/02/18/oh-julia-sendlinger-strase-innenstadt/' target='_blank'>Visit blog</a>",
				"name" : " Oh Julia!"
			}
		}, {
			"geometry" : {
				"type" : "Point",
				"coordinates" : [
					11.3505017366823,
					48.00187615
				]
			},
			"type" : "Feature",
			"properties" : {
				"link" : "<a href='http://essengehenistaucheinhobby.de/2014/01/28/restaurant-olivs-4-jahreszeiten-starnberg/' target='_blank'>Visit blog</a>",
				"name" : " Restaurant Oliv´s"
			}
		}, {
			"geometry" : {
				"type" : "Point",
				"coordinates" : [
					11.5793167,
					48.1216225
				]
			},
			"type" : "Feature",
			"properties" : {
				"link" : "<a href='http://wp.me/p4w7zh-5OL' target='_blank'>Visit blog</a>",
				"name" : " Österia"
			}
		}, {
			"geometry" : {
				"type" : "Point",
				"coordinates" : [
					11.575949,
					48.1575125
				]
			},
			"type" : "Feature",
			"properties" : {
				"link" : "<a href='http://essengehenistaucheinhobby.de/2014/05/07/panther-grill-schwabing-international/' target='_blank'>Visit blog</a>",
				"name" : " Panther Grill"
			}
		}, {
			"geometry" : {
				"type" : "Point",
				"coordinates" : [
					11.5645984400503,
					48.14232745
				]
			},
			"type" : "Feature",
			"properties" : {
				"link" : "<a href='http://essengehenistaucheinhobby.de/2013/11/21/parkcafe-innenstadt/' target='_blank'>Visit blog</a>",
				"name" : " Parkcafé"
			}
		}, {
			"geometry" : {
				"type" : "Point",
				"coordinates" : [
					11.457819,
					48.1500447
				]
			},
			"type" : "Feature",
			"properties" : {
				"link" : "<a href='http://essengehenistaucheinhobby.de/2015/05/27/pasinger_pumpenwerk/' target='_blank'>Visit blog</a>",
				"name" : " Pasinger Pumpenwerk"
			}
		}, {
			"geometry" : {
				"type" : "Point",
				"coordinates" : [
					11.5586412,
					48.1261608
				]
			},
			"type" : "Feature",
			"properties" : {
				"link" : "<a href='http://essengehenistaucheinhobby.de/2014/12/08/paulaner-braeuhaus-ludwigvorstadt-bayerisch' target='_blank'>Visit blog</a>",
				"name" : " Paulaner Bräuhaus"
			}
		}, {
			"geometry" : {
				"type" : "Point",
				"coordinates" : [
					11.5903994,
					48.1610248
				]
			},
			"type" : "Feature",
			"properties" : {
				"link" : "<a href='http://essengehenistaucheinhobby.de/2014/03/29/pepe-nero-schwabing-italienisch/' target='_blank'>Visit blog</a>",
				"name" : " Pepenero Ristorante"
			}
		}, {
			"geometry" : {
				"type" : "Point",
				"coordinates" : [
					11.5729654,
					48.1304506
				]
			},
			"type" : "Feature",
			"properties" : {
				"link" : "<a href='http://essengehenistaucheinhobby.de/2015/05/13/pescheria/' target='_blank'>Visit blog</a>",
				"name" : " Pescheria"
			}
		}, {
			"geometry" : {
				"type" : "Point",
				"coordinates" : [
					11.5350658672139,
					48.1467736
				]
			},
			"type" : "Feature",
			"properties" : {
				"link" : "<a href='http://essengehenistaucheinhobby.de/2014/05/28/piacere-nuovo-neuhausen-italienisch/' target='_blank'>Visit blog</a>",
				"name" : " Piacere Nuovo"
			}
		}, {
			"geometry" : {
				"type" : "Point",
				"coordinates" : [
					11.5437308,
					48.1201257
				]
			},
			"type" : "Feature",
			"properties" : {
				"link" : "<a href='http://essengehenistaucheinhobby.de/2014/10/01/pressbar-saefte-detoxkur' target='_blank'>Visit blog</a>",
				"name" : " Pressbar"
			}
		}, {
			"geometry" : {
				"type" : "Point",
				"coordinates" : [
					11.4971422,
					48.1468403
				]
			},
			"type" : "Feature",
			"properties" : {
				"link" : "<a href='http://wp.me/p4w7zh-3Di' target='_blank'>Visit blog</a>",
				"name" : " Primafila"
			}
		}, {
			"geometry" : {
				"type" : "Point",
				"coordinates" : [
					11.5882892,
					48.1431188
				]
			},
			"type" : "Feature",
			"properties" : {
				"link" : "<a href='http://wp.me/p4w7zh-5IP' target='_blank'>Visit blog</a>",
				"name" : " Prinzipal"
			}
		}, {
			"geometry" : {
				"type" : "Point",
				"coordinates" : [
					11.5751968,
					48.1347514
				]
			},
			"type" : "Feature",
			"properties" : {
				"link" : "<a href='http://essengehenistaucheinhobby.de/2013/12/10/pschorr-munchen-viktualienmarkt-schrannenhalle/' target='_blank'>Visit blog</a>",
				"name" : " Pschorr München"
			}
		}, {
			"geometry" : {
				"type" : "Point",
				"coordinates" : [
					11.5670911,
					48.1300937
				]
			},
			"type" : "Feature",
			"properties" : {
				"link" : "<a href='http://essengehenistaucheinhobby.de/2014/09/03/punto-divino-altstadt-italienisch/' target='_blank'>Visit blog</a>",
				"name" : " Punto DiVino"
			}
		}, {
			"geometry" : {
				"type" : "Point",
				"coordinates" : [
					11.5315478,
					48.1527554
				]
			},
			"type" : "Feature",
			"properties" : {
				"link" : "<a href='http://wp.me/p4w7zh-3ge' target='_blank'>Visit blog</a>",
				"name" : " Quan Com"
			}
		}, {
			"geometry" : {
				"type" : "Point",
				"coordinates" : [
					11.5617982,
					48.1223135
				]
			},
			"type" : "Feature",
			"properties" : {
				"link" : "<a href='http://essengehenistaucheinhobby.de/2014/07/12/quattro-tivoli/' target='_blank'>Visit blog</a>",
				"name" : " Quattro Tavoli"
			}
		}, {
			"geometry" : {
				"type" : "Point",
				"coordinates" : [
					11.5236283,
					48.0565623
				]
			},
			"type" : "Feature",
			"properties" : {
				"link" : "<a href='http://essengehenistaucheinhobby.de/2013/10/13/rabenwirt-pullach-im-isartal/' target='_blank'>Visit blog</a>",
				"name" : " Rabenwirt Pullach"
			}
		}, {
			"geometry" : {
				"type" : "Point",
				"coordinates" : [
					11.5820237,
					48.140764
				]
			},
			"type" : "Feature",
			"properties" : {
				"link" : "<a href='http://essengehenistaucheinhobby.de/2015/01/22/refettorio/' target='_blank'>Visit blog</a>",
				"name" : " Refettorio"
			}
		}, {
			"geometry" : {
				"type" : "Point",
				"coordinates" : [
					11.5587663,
					48.1540961
				]
			},
			"type" : "Feature",
			"properties" : {
				"link" : "<a href='http://essengehenistaucheinhobby.de/2015/01/05/regionalmarkt-muenchen-regionale-lebensmittel-lieferservice/' target='_blank'>Visit blog</a>",
				"name" : " Regionaler Markt München"
			}
		}, {
			"geometry" : {
				"type" : "Point",
				"coordinates" : [
					11.5889239,
					48.1554655
				]
			},
			"type" : "Feature",
			"properties" : {
				"link" : "<a href='http://essengehenistaucheinhobby.de/2013/10/12/reitschule-lehel/' target='_blank'>Visit blog</a>",
				"name" : " Café Reitschule"
			}
		}, {
			"geometry" : {
				"type" : "Point",
				"coordinates" : [
					11.5874845,
					48.1241049
				]
			},
			"type" : "Feature",
			"properties" : {
				"link" : "<a href='http://wp.me/p4w7zh-5Pt' target='_blank'>Visit blog</a>",
				"name" : " Restaurant Ebert"
			}
		}, {
			"geometry" : {
				"type" : "Point",
				"coordinates" : [
					11.5819627,
					48.1372596
				]
			},
			"type" : "Feature",
			"properties" : {
				"link" : "<a href='http://essengehenistaucheinhobby.de/2015/02/16/kleines-max/' target='_blank'>Visit blog</a>",
				"name" : " Kleines Max – Restaurant im Hotel Maximilian"
			}
		}, {
			"geometry" : {
				"type" : "Point",
				"coordinates" : [
					11.5737265,
					48.134761
				]
			},
			"type" : "Feature",
			"properties" : {
				"link" : "<a href='http://essengehenistaucheinhobby.de/2014/06/09/restaurant-kleinschmecker-innenstadt-international/' target='_blank'>Visit blog</a>",
				"name" : " Restaurant Kleinschmecker"
			}
		}, {
			"geometry" : {
				"type" : "Point",
				"coordinates" : [
					11.183468,
					47.910414
				]
			},
			"type" : "Feature",
			"properties" : {
				"link" : "<a href='http://wp.me/p4w7zh-5C5' target='_blank'>Visit blog</a>",
				"name" : " Restaurant Pfaffenwinkel"
			}
		}, {
			"geometry" : {
				"type" : "Point",
				"coordinates" : [
					11.6096724,
					48.1289557
				]
			},
			"type" : "Feature",
			"properties" : {
				"link" : "<a href='http://essengehenistaucheinhobby.de/2014/05/24/restaurant-portugal-haidhausen-portugiesisch/' target='_blank'>Visit blog</a>",
				"name" : " Restaurant Portugal"
			}
		}, {
			"geometry" : {
				"type" : "Point",
				"coordinates" : [
					11.5585448,
					48.1648541
				]
			},
			"type" : "Feature",
			"properties" : {
				"link" : "<a href='http://essengehenistaucheinhobby.de/2014/08/03/rigoletto-nordschwabing-international/' target='_blank'>Visit blog</a>",
				"name" : " Rigoletto"
			}
		}, {
			"geometry" : {
				"type" : "Point",
				"coordinates" : [
					11.6371208,
					48.1552896
				]
			},
			"type" : "Feature",
			"properties" : {
				"link" : "<a href='http://wp.me/p4w7zh-4CP' target='_blank'>Visit blog</a>",
				"name" : " Ristorante Martinelli"
			}
		}, {
			"geometry" : {
				"type" : "Point",
				"coordinates" : [
					11.581055,
					48.1353251
				]
			},
			"type" : "Feature",
			"properties" : {
				"link" : "<a href='http://essengehenistaucheinhobby.de/2013/11/29/riva-tal-innenstadt/' target='_blank'>Visit blog</a>",
				"name" : " Riva"
			}
		}, {
			"geometry" : {
				"type" : "Point",
				"coordinates" : [
					11.5291832,
					48.1572311
				]
			},
			"type" : "Feature",
			"properties" : {
				"link" : "<a href='http://wp.me/p4w7zh-3NM' target='_blank'>Visit blog</a>",
				"name" : " Romans"
			}
		}, {
			"geometry" : {
				"type" : "Point",
				"coordinates" : [
					11.6248219,
					48.1467681
				]
			},
			"type" : "Feature",
			"properties" : {
				"link" : "<a href='http://essengehenistaucheinhobby.de/2015/02/09/rothof/' target='_blank'>Visit blog</a>",
				"name" : " Rothof"
			}
		}, {
			"geometry" : {
				"type" : "Point",
				"coordinates" : [
					11.5625182435331,
					48.1428924
				]
			},
			"type" : "Feature",
			"properties" : {
				"link" : "<a href='http://wp.me/p4w7zh-4jV' target='_blank'>Visit blog</a>",
				"name" : " The Charles Hotel, Munich"
			}
		}, {
			"geometry" : {
				"type" : "Point",
				"coordinates" : [
					11.5868896,
					48.1395502
				]
			},
			"type" : "Feature",
			"properties" : {
				"link" : "<a href='http://essengehenistaucheinhobby.de/2013/10/08/salotto-lehel/' target='_blank'>Visit blog</a>",
				"name" : " Salotto"
			}
		}, {
			"geometry" : {
				"type" : "Point",
				"coordinates" : [
					11.5714136,
					48.1317462
				]
			},
			"type" : "Feature",
			"properties" : {
				"link" : "<a href='http://essengehenistaucheinhobby.de/2013/10/24/samrat-inder-innenstadt/' target='_blank'>Visit blog</a>",
				"name" : " Samrat"
			}
		}, {
			"geometry" : {
				"type" : "Point",
				"coordinates" : [
					11.5749901,
					48.1432283
				]
			},
			"type" : "Feature",
			"properties" : {
				"link" : "<a href='http://essengehenistaucheinhobby.de/2013/11/22/sangeet-indisches-restaurant-altstadtinnenstadt/' target='_blank'>Visit blog</a>",
				"name" : " Sangeet"
			}
		}, {
			"geometry" : {
				"type" : "Point",
				"coordinates" : [
					11.5712434,
					48.1319034
				]
			},
			"type" : "Feature",
			"properties" : {
				"link" : "<a href='http://essengehenistaucheinhobby.de/2013/10/22/santo-anger-pizzaria-innenstadt/' target='_blank'>Visit blog</a>",
				"name" : " Santo Anger"
			}
		}, {
			"geometry" : {
				"type" : "Point",
				"coordinates" : [
					11.5748908,
					48.1370127
				]
			},
			"type" : "Feature",
			"properties" : {
				"link" : "<a href='http://essengehenistaucheinhobby.de/2013/11/11/sasou-japanische-suppen-marienplatz/' target='_blank'>Visit blog</a>",
				"name" : " Sasou"
			}
		}, {
			"geometry" : {
				"type" : "Point",
				"coordinates" : [
					11.577249,
					48.1500391
				]
			},
			"type" : "Feature",
			"properties" : {
				"link" : "<a href='http://essengehenistaucheinhobby.de/2015/03/27/schall-rauch-schwabing/' target='_blank'>Visit blog</a>",
				"name" : " Schall und Rauch"
			}
		}, {
			"geometry" : {
				"type" : "Point",
				"coordinates" : [
					11.51166615,
					48.15908585
				]
			},
			"type" : "Feature",
			"properties" : {
				"link" : "<a href='http://essengehenistaucheinhobby.de/2013/12/04/schlosscafe-im-palmenhaus-schloss-nymphenburg/' target='_blank'>Visit blog</a>",
				"name" : " Schlosscafé im Palmenhaus"
			}
		}, {
			"geometry" : {
				"type" : "Point",
				"coordinates" : [
					11.5800462,
					48.1381999
				]
			},
			"type" : "Feature",
			"properties" : {
				"link" : "<a href='http://essengehenistaucheinhobby.de/2014/02/12/schubecks-orlando-am-platzl-innenstadt/' target='_blank'>Visit blog</a>",
				"name" : " Schubeck´s Orlando"
			}
		}, {
			"geometry" : {
				"type" : "Point",
				"coordinates" : [
					11.5819647,
					48.1391684
				]
			},
			"type" : "Feature",
			"properties" : {
				"link" : "<a href='http://wp.me/p4w7zh-5II' target='_blank'>Visit blog</a>",
				"name" : " Schwarzreiter"
			}
		}, {
			"geometry" : {
				"type" : "Point",
				"coordinates" : [
					11.8689141,
					48.1874994
				]
			},
			"type" : "Feature",
			"properties" : {
				"link" : "<a href='http://wp.me/p4w7zh-5no' target='_blank'>Visit blog</a>",
				"name" : " Schweiger Brauhaus"
			}
		}, {
			"geometry" : {
				"type" : "Point",
				"coordinates" : [
					11.1049467,
					47.9655672
				]
			},
			"type" : "Feature",
			"properties" : {
				"link" : "<a href='http://essengehenistaucheinhobby.de/2014/04/26/seerestaurant-st-alban-ammersee-international/' target='_blank'>Visit blog</a>",
				"name" : " Seerestaurant St. Alban"
			}
		}, {
			"geometry" : {
				"type" : "Point",
				"coordinates" : [
					11.5887081,
					48.161885
				]
			},
			"type" : "Feature",
			"properties" : {
				"link" : "<a href='http://wp.me/p4w7zh-5uv' target='_blank'>Visit blog</a>",
				"name" : " Shami"
			}
		}, {
			"geometry" : {
				"type" : "Point",
				"coordinates" : [
					11.5894203,
					48.1619142
				]
			},
			"type" : "Feature",
			"properties" : {
				"link" : "<a href='http://wp.me/p4w7zh-3mI' target='_blank'>Visit blog</a>",
				"name" : " So.Cal"
			}
		}, {
			"geometry" : {
				"type" : "Point",
				"coordinates" : [
					11.5625182435331,
					48.1428924
				]
			},
			"type" : "Feature",
			"properties" : {
				"link" : "<a href='http://wp.me/p4w7zh-5yE' target='_blank'>Visit blog</a>",
				"name" : " Sophia´s Restaurant & Bar"
			}
		}, {
			"geometry" : {
				"type" : "Point",
				"coordinates" : [
					11.4608846,
					48.1561515
				]
			},
			"type" : "Feature",
			"properties" : {
				"link" : "<a href='http://wp.me/p4w7zh-4aa' target='_blank'>Visit blog</a>",
				"name" : " Speisemeisterei La Trattoria"
			}
		}, {
			"geometry" : {
				"type" : "Point",
				"coordinates" : [
					11.5781771,
					48.1375578
				]
			},
			"type" : "Feature",
			"properties" : {
				"link" : "<a href='http://essengehenistaucheinhobby.de/2014/02/10/spezlwirtschaft-altstadt/' target='_blank'>Visit blog</a>",
				"name" : " Spezlwirtschaft"
			}
		}, {
			"geometry" : {
				"type" : "Point",
				"coordinates" : [
					11.5958299,
					48.1282003
				]
			},
			"type" : "Feature",
			"properties" : {
				"link" : "<a href='http://essengehenistaucheinhobby.de/2015/03/03/spicery-haidhausen/' target='_blank'>Visit blog</a>",
				"name" : " Spicery"
			}
		}, {
			"geometry" : {
				"type" : "Point",
				"coordinates" : [
					11.5638254,
					48.1502459
				]
			},
			"type" : "Feature",
			"properties" : {
				"link" : "<a href='http://essengehenistaucheinhobby.de/2015/01/18/sunny-food/' target='_blank'>Visit blog</a>",
				"name" : " Sunny Food – Green Smoothies"
			}
		}, {
			"geometry" : {
				"type" : "Point",
				"coordinates" : [
					11.6054694,
					48.135471
				]
			},
			"type" : "Feature",
			"properties" : {
				"link" : "<a href='http://essengehenistaucheinhobby.de/2013/12/05/surbahar-indische-kuche-haidhausen-jetzt-delhi-palace/' target='_blank'>Visit blog</a>",
				"name" : " Shalimar"
			}
		}, {
			"geometry" : {
				"type" : "Point",
				"coordinates" : [
					11.6082493,
					48.1379177
				]
			},
			"type" : "Feature",
			"properties" : {
				"link" : "<a href='http://essengehenistaucheinhobby.de/2013/10/27/sushi-cent-japaner-haidhausen/' target='_blank'>Visit blog</a>",
				"name" : " Sushi Cent"
			}
		}, {
			"geometry" : {
				"type" : "Point",
				"coordinates" : [
					11.5745594,
					48.163465
				]
			},
			"type" : "Feature",
			"properties" : {
				"link" : "<a href='http://essengehenistaucheinhobby.de/2013/10/07/sushi-express-bestellservice-schwabing/' target='_blank'>Visit blog</a>",
				"name" : " Sushi Express"
			}
		}, {
			"geometry" : {
				"type" : "Point",
				"coordinates" : [
					11.5828373113827,
					48.1646105
				]
			},
			"type" : "Feature",
			"properties" : {
				"link" : "<a href='http://essengehenistaucheinhobby.de/2014/05/17/tapa-gallo-schwabing-spanisch/' target='_blank'>Visit blog</a>",
				"name" : " Tapa Gallo"
			}
		}, {
			"geometry" : {
				"type" : "Point",
				"coordinates" : [
					11.5971,
					48.1496142
				]
			},
			"type" : "Feature",
			"properties" : {
				"link" : "<a href='http://essengehenistaucheinhobby.de/2013/11/16/taverna-del-sud-italiener-lehel/' target='_blank'>Visit blog</a>",
				"name" : " Taverna del Sud"
			}
		}, {
			"geometry" : {
				"type" : "Point",
				"coordinates" : [
					11.517237,
					48.1113018
				]
			},
			"type" : "Feature",
			"properties" : {
				"link" : "<a href='http://essengehenistaucheinhobby.de/2014/10/15/thalassa-sendling-griechisch/' target='_blank'>Visit blog</a>",
				"name" : " Thalassa"
			}
		}, {
			"geometry" : {
				"type" : "Point",
				"coordinates" : [
					11.5754838,
					48.1478753
				]
			},
			"type" : "Feature",
			"properties" : {
				"link" : "<a href='http://essengehenistaucheinhobby.de/2014/05/20/theresa-maxvorstadt-international/' target='_blank'>Visit blog</a>",
				"name" : " Theresa Grill – Bar"
			}
		}, {
			"geometry" : {
				"type" : "Point",
				"coordinates" : [
					11.552397,
					48.1249578
				]
			},
			"type" : "Feature",
			"properties" : {
				"link" : "<a href='http://wp.me/p4w7zh-3WW' target='_blank'>Visit blog</a>",
				"name" : " The Blunch Kitchen"
			}
		}, {
			"geometry" : {
				"type" : "Point",
				"coordinates" : [
					11.5379047,
					48.1303221
				]
			},
			"type" : "Feature",
			"properties" : {
				"link" : "<a href='http://essengehenistaucheinhobby.de/2014/11/19/caribbean-embassy-schwabing-karibisch/' target='_blank'>Visit blog</a>",
				"name" : " The Caribbean Embassy – TCE"
			}
		}, {
			"geometry" : {
				"type" : "Point",
				"coordinates" : [
					11.5775676,
					48.1342996
				]
			},
			"type" : "Feature",
			"properties" : {
				"link" : "<a href='http://essengehenistaucheinhobby.de/2014/06/14/the-victorian-house-viktualienmarkt-international/' target='_blank'>Visit blog</a>",
				"name" : " The Victorian House"
			}
		}, {
			"geometry" : {
				"type" : "Point",
				"coordinates" : [
					11.4954813,
					48.1396725
				]
			},
			"type" : "Feature",
			"properties" : {
				"link" : "<a href='http://wp.me/p4w7zh-3VY' target='_blank'>Visit blog</a>",
				"name" : " Trattoria Lindengarten"
			}
		}, {
			"geometry" : {
				"type" : "Point",
				"coordinates" : [
					11.5722285,
					48.1490505
				]
			},
			"type" : "Feature",
			"properties" : {
				"link" : "<a href='http://essengehenistaucheinhobby.de/2013/12/12/tresznjewski-theresienstrase-maxvorstadt/' target='_blank'>Visit blog</a>",
				"name" : " Tresznjewski"
			}
		}, {
			"geometry" : {
				"type" : "Point",
				"coordinates" : [
					11.3400252,
					47.9937322
				]
			},
			"type" : "Feature",
			"properties" : {
				"link" : "<a href='http://essengehenistaucheinhobby.de/2014/03/19/undosa-starnberg-international/' target='_blank'>Visit blog</a>",
				"name" : " Undosa"
			}
		}, {
			"geometry" : {
				"type" : "Point",
				"coordinates" : [
					11.5829343,
					48.1154188
				]
			},
			"type" : "Feature",
			"properties" : {
				"link" : "<a href='http://wp.me/p4w7zh-1uE' target='_blank'>Visit blog</a>",
				"name" : " Upper Eat Side"
			}
		}, {
			"geometry" : {
				"type" : "Point",
				"coordinates" : [
					11.5833831,
					48.1338966
				]
			},
			"type" : "Feature",
			"properties" : {
				"link" : "<a href='http://essengehenistaucheinhobby.de/2014/06/14/va-bene-altstadt-italienisch/' target='_blank'>Visit blog</a>",
				"name" : " Va Bene"
			}
		}, {
			"geometry" : {
				"type" : "Point",
				"coordinates" : [
					9.6908377,
					47.5481266
				]
			},
			"type" : "Feature",
			"properties" : {
				"link" : "<a href='http://essengehenistaucheinhobby.de/2013/11/22/viamala-lindau-bodensee/' target='_blank'>Visit blog</a>",
				"name" : " Viamala"
			}
		}, {
			"geometry" : {
				"type" : "Point",
				"coordinates" : [
					11.5910985,
					48.1265228
				]
			},
			"type" : "Feature",
			"properties" : {
				"link" : "<a href='http://essengehenistaucheinhobby.de/2014/06/11/vib-grill-lounge-haidhausen-brasilianisch/' target='_blank'>Visit blog</a>",
				"name" : " VIB Grill & Lounge"
			}
		}, {
			"geometry" : {
				"type" : "Point",
				"coordinates" : [
					11.5604735820161,
					48.14795735
				]
			},
			"type" : "Feature",
			"properties" : {
				"link" : "<a href='http://essengehenistaucheinhobby.de/2014/04/06/volkskuche-maxvorstadt-international/' target='_blank'>Visit blog</a>",
				"name" : " Volksküche"
			}
		}, {
			"geometry" : {
				"type" : "Point",
				"coordinates" : [
					11.5901464156529,
					48.16230945
				]
			},
			"type" : "Feature",
			"properties" : {
				"link" : "<a href='http://essengehenistaucheinhobby.de/2014/04/05/waldfee-schwabing-international/' target='_blank'>Visit blog</a>",
				"name" : " Waldfee"
			}
		}, {
			"geometry" : {
				"type" : "Point",
				"coordinates" : [
					11.6021468,
					48.1454795
				]
			},
			"type" : "Feature",
			"properties" : {
				"link" : "<a href='http://essengehenistaucheinhobby.de/2014/12/31/wieners/' target='_blank'>Visit blog</a>",
				"name" : " Wiener´s"
			}
		}, {
			"geometry" : {
				"type" : "Point",
				"coordinates" : [
					11.5439738,
					48.1322054
				]
			},
			"type" : "Feature",
			"properties" : {
				"link" : "<a href='http://essengehenistaucheinhobby.de/alle/wirtshaus-am-bavariapark-weinviertel/' target='_blank'>Visit blog</a>",
				"name" : " Wirtshaus am Bavariapark"
			}
		}, {
			"geometry" : {
				"type" : "Point",
				"coordinates" : [
					11.8687609,
					48.1901673
				]
			},
			"type" : "Feature",
			"properties" : {
				"link" : "<a href='http://wp.me/p4w7zh-5sX' target='_blank'>Visit blog</a>",
				"name" : " Wirtshaus im Oberbräu"
			}
		}, {
			"geometry" : {
				"type" : "Point",
				"coordinates" : [
					11.5861961,
					48.1602745
				]
			},
			"type" : "Feature",
			"properties" : {
				"link" : "<a href='http://essengehenistaucheinhobby.de/2013/10/31/wirtshaus-zur-brezn-bayrisch-leopoldstrase' target='_blank'>Visit blog</a>",
				"name" : " Wirtshaus zur Brez´n"
			}
		}, {
			"geometry" : {
				"type" : "Point",
				"coordinates" : [
					11.5589727,
					48.1635005
				]
			},
			"type" : "Feature",
			"properties" : {
				"link" : "<a href='http://essengehenistaucheinhobby.de/2014/10/17/woellsteins-desserthaus-schwabing-kursangebot' target='_blank'>Visit blog</a>",
				"name" : " Wöllsteins Desserthaus"
			}
		}, {
			"geometry" : {
				"type" : "Point",
				"coordinates" : [
					11.5767092,
					48.1511219
				]
			},
			"type" : "Feature",
			"properties" : {
				"link" : "<a href='http://essengehenistaucheinhobby.de/2013/10/27/zeitgeist-schwabing/' target='_blank'>Visit blog</a>",
				"name" : " Zeitgeist"
			}
		}, {
			"geometry" : {
				"type" : "Point",
				"coordinates" : [
					11.5617982,
					48.1223135
				]
			},
			"type" : "Feature",
			"properties" : {
				"link" : "<a href='http://essengehenistaucheinhobby.de/2014/07/17/zooziez/' target='_blank'>Visit blog</a>",
				"name" : " Zoozie´z"
			}
		}
	]
}
